City_ID,City,Country,Lat,Lng,Max Temp,Humidity,Cloudiness,Wind Speed,Current Description
0,Mataura,NZ,-46.1927,168.8643,55.99,86,84,1.01,broken clouds
1,Punta Arenas,CL,-53.15,-70.9167,55.4,44,0,28.77,clear sky
2,Port Hardy,CA,50.6996,-127.4199,46.4,87,75,6.91,broken clouds
3,Vaini,TO,-21.2,-175.2,78.8,94,75,6.91,broken clouds
4,Albany,US,42.6001,-73.9662,35.01,62,99,4.74,overcast clouds
5,Atuona,PF,-9.8,-139.0333,77.65,79,100,16.13,overcast clouds
6,Turukhansk,RU,65.8167,87.9833,-15.9,89,100,8.28,light snow
7,Torbay,CA,47.6666,-52.7314,30.99,80,90,6.91,overcast clouds
8,Hermanus,ZA,-34.4187,19.2345,71.01,82,86,8.01,overcast clouds
9,Lebu,CL,-37.6167,-73.65,58.51,58,3,21.54,clear sky
10,Port Elizabeth,ZA,-33.918,25.5701,69.8,88,90,10.36,overcast clouds
11,Bluff,NZ,-46.6,168.3333,55.99,86,100,1.01,overcast clouds
12,Waingapu,ID,-9.6567,120.2641,80.17,81,99,4.18,overcast clouds
13,Bambous Virieux,MU,-20.3428,57.7575,79.0,94,75,17.27,light rain
14,Leningradskiy,RU,69.3833,178.4167,-18.24,85,100,19.08,light snow
15,Port Alfred,ZA,-33.5906,26.891,68.0,95,100,1.01,overcast clouds
16,Hays,US,30.0502,-98.0336,51.01,59,41,6.42,scattered clouds
17,Rikitea,PF,-23.1203,-134.9692,78.19,77,0,17.05,clear sky
18,Dudinka,RU,69.4058,86.1778,12.85,96,100,9.04,light snow
19,Thompson,CA,55.7435,-97.8558,21.2,100,90,6.87,light snow
20,Iqaluit,CA,63.7506,-68.5145,5.0,72,75,2.3,broken clouds
21,Fortuna,US,40.5982,-124.1573,57.99,94,75,21.85,moderate rain
22,Lagoa,PT,39.05,-27.9833,61.23,85,100,15.37,light rain
23,Sanary-Sur-Mer,FR,43.1178,5.8001,48.99,61,89,11.99,overcast clouds
24,Bengkulu,ID,-3.8004,102.2655,75.9,83,100,5.48,moderate rain
25,Hualmay,PE,-11.0964,-77.6139,75.25,70,45,10.69,scattered clouds
26,Albox,ES,37.3886,-2.1495,43.0,64,0,1.99,clear sky
27,Vila Franca Do Campo,PT,37.7167,-25.4333,60.8,94,40,14.97,light rain
28,Busselton,AU,-33.65,115.3333,57.99,85,100,1.01,overcast clouds
29,Sola,VU,-13.8833,167.55,78.8,100,75,12.5,light rain
30,New Norfolk,AU,-42.7826,147.0587,55.99,70,7,2.24,clear sky
31,Victoria,HK,22.2855,114.1577,53.01,43,0,7.38,clear sky
32,Mar Del Plata,AR,-38.0023,-57.5575,71.6,40,20,11.5,light rain
33,Butaritari,KI,3.0707,172.7902,81.23,80,98,20.4,light rain
34,Chuy,UY,-33.6971,-53.4616,69.57,50,100,14.72,overcast clouds
35,La Rioja,ES,42.25,-2.5,39.99,75,40,9.22,scattered clouds
36,Fairbanks,US,64.8378,-147.7164,1.4,85,40,3.24,scattered clouds
37,San Cristobal,VE,7.7669,-72.225,84.2,61,40,16.11,scattered clouds
38,Road Town,VG,18.4167,-64.6167,80.6,69,40,11.5,scattered clouds
39,Kapaa,US,22.0752,-159.319,71.6,88,1,8.05,clear sky
40,Tasiilaq,GL,65.6145,-37.6368,32.0,93,90,34.52,light snow
41,Hay River,CA,60.8156,-115.7999,24.8,68,0,3.44,clear sky
42,Husavik,IS,66.0449,-17.3389,15.8,73,0,5.75,clear sky
43,Qaanaaq,GL,77.484,-69.3632,12.78,82,98,8.01,overcast clouds
44,Bredasdorp,ZA,-34.5322,20.0403,68.0,88,100,12.66,light rain
45,Ouadda,CF,8.0777,22.4007,70.68,23,46,3.83,scattered clouds
46,Geraldton,AU,-28.7667,114.6,69.8,78,75,18.41,broken clouds
47,Souillac,MU,-20.5167,57.5167,77.0,94,75,17.27,light rain
48,Upernavik,GL,72.7868,-56.1549,16.18,96,100,7.45,overcast clouds
49,Pundaguitan,PH,6.3711,126.1689,81.18,80,99,10.87,moderate rain
50,Cayenne,GF,4.9333,-52.3333,80.6,83,90,11.5,overcast clouds
51,Natal,BR,-5.795,-35.2094,80.6,78,40,9.22,scattered clouds
52,Yellowknife,CA,62.456,-114.3525,10.99,85,20,4.61,few clouds
53,Jalu,LY,29.0331,21.5482,63.0,66,100,19.33,overcast clouds
54,Winneba,GH,5.3511,-0.6231,82.4,83,0,14.97,clear sky
55,Key Largo,US,25.0865,-80.4473,75.0,73,100,1.99,overcast clouds
56,Jamestown,US,42.097,-79.2353,28.99,80,90,12.66,haze
57,Marzuq,YE,14.4,46.4667,54.7,40,0,4.81,clear sky
58,Srednekolymsk,RU,67.45,153.6833,-37.34,83,91,1.54,overcast clouds
59,Ponta Do Sol,PT,32.6667,-17.1,55.99,52,36,1.99,scattered clouds
60,Riyadh,SA,24.6877,46.7219,51.8,32,0,7.45,clear sky
61,Teeli,RU,51.0333,90.2333,3.22,90,100,1.12,overcast clouds
62,Deputatskiy,RU,69.3,139.9,-35.72,77,89,1.5,overcast clouds
63,Hilo,US,19.7297,-155.09,73.4,68,90,5.75,overcast clouds
64,Dwarka,IN,22.2394,68.9678,70.36,38,0,11.05,clear sky
65,Dikson,RU,73.5069,80.5464,-2.2,93,100,8.68,overcast clouds
66,Wilmington,US,34.2257,-77.9447,48.99,87,90,9.22,overcast clouds
67,Kununurra,AU,-15.7667,128.7333,80.6,100,12,4.61,few clouds
68,Mbini,GQ,1.574,9.6134,80.6,89,40,4.61,light rain
69,Garissa,KE,-0.4536,39.6401,82.76,40,0,8.81,clear sky
70,Ushuaia,AR,-54.8,-68.3,51.8,43,40,21.85,scattered clouds
71,Laguna,US,38.421,-121.4238,54.0,76,90,4.14,haze
72,Hithadhoo,MV,-0.6,73.0833,81.32,79,93,18.48,overcast clouds
73,Mehran,IR,33.1222,46.1646,42.8,39,0,4.61,clear sky
74,Avarua,CK,-21.2078,-159.775,82.4,74,75,16.11,broken clouds
75,Georgetown,MY,5.4112,100.3354,78.01,78,20,2.3,few clouds
76,Hobart,AU,-42.8794,147.3294,55.99,82,40,5.75,scattered clouds
77,Barrow,US,71.2906,-156.7887,-0.4,78,90,25.32,snow
78,Banda,IN,25.4833,80.3333,49.42,52,0,5.28,clear sky
79,Tandil,AR,-37.3217,-59.1332,78.01,10,0,3.0,clear sky
80,Chenzhou,CN,25.8,113.0333,38.41,66,0,3.27,clear sky
81,Port Lincoln,AU,-34.7333,135.8667,59.94,77,100,3.67,overcast clouds
82,Wrexham,GB,53.0,-3.0,34.0,80,0,1.14,clear sky
83,Avera,US,33.194,-82.5271,48.2,93,90,5.75,overcast clouds
84,Saint George,US,37.1041,-113.5841,37.4,32,1,3.44,clear sky
85,Fallon,US,39.4735,-118.7774,39.2,56,90,3.44,overcast clouds
86,Khatanga,RU,71.9667,102.5,-25.46,87,92,1.34,overcast clouds
87,Rio Grande,BR,-32.035,-52.0986,73.4,68,90,11.5,overcast clouds
88,Sao Miguel Do Araguaia,BR,-13.275,-50.1628,85.19,69,100,1.83,light rain
89,Lusambo,CD,-4.9667,23.45,71.01,95,100,1.1,light rain
90,Buala,SB,-8.145,159.5921,78.49,80,100,2.91,overcast clouds
91,Tuktoyaktuk,CA,69.4541,-133.0374,1.4,85,90,18.41,snow
92,Nanortalik,GL,60.1432,-45.2371,32.29,94,100,8.72,overcast clouds
93,Wairoa,NZ,-39.0333,177.3667,64.99,82,3,1.99,clear sky
94,Alekseyevsk,RU,57.8406,108.3492,-27.72,83,98,4.14,overcast clouds
95,Faanui,PF,-16.4833,-151.75,81.32,76,100,20.6,light rain
96,Kemin,KG,42.7846,75.6892,24.62,92,100,0.96,light snow
97,Wadi Maliz,TN,36.4681,8.5495,50.0,71,40,9.22,scattered clouds
98,Tongliao,CN,43.6125,122.2653,-1.95,88,64,8.1,broken clouds
99,Tyler,US,32.3513,-95.3011,50.0,46,1,6.91,clear sky
100,Saskylakh,RU,71.9167,114.0833,-26.86,84,97,4.81,overcast clouds
101,Hofn,IS,64.2539,-15.2082,31.57,90,99,10.98,overcast clouds
102,Airai,TL,-8.9266,125.4092,61.79,100,100,1.3,overcast clouds
103,Charleston,US,32.7766,-79.9309,53.01,82,90,8.05,overcast clouds
104,Esso,RU,55.9333,158.7,0.54,84,100,5.53,overcast clouds
105,Carnarvon,AU,-24.8667,113.6333,75.2,83,0,20.71,clear sky
106,Cidreira,BR,-30.1811,-50.2056,75.06,83,94,15.37,overcast clouds
107,Papar,MY,5.7333,115.9333,77.0,88,20,2.3,few clouds
108,Nieuw Amsterdam,SR,5.8833,-55.0833,86.0,66,40,13.8,scattered clouds
109,Sarmanovo,RU,55.2553,52.5891,-9.4,77,75,4.47,broken clouds
110,Okhotsk,RU,59.3833,143.3,-10.05,90,91,4.81,overcast clouds
111,Arraial Do Cabo,BR,-22.9661,-42.0278,84.2,58,40,20.71,scattered clouds
112,Alwar,IN,27.5667,76.6,50.34,40,0,3.87,clear sky
113,Te Anau,NZ,-45.4167,167.7167,56.32,83,95,1.97,overcast clouds
114,Lieksa,FI,63.3167,30.0167,5.18,92,50,17.16,scattered clouds
115,Poum,NC,-20.2333,164.0167,81.95,81,47,12.19,light rain
116,Constitucion,CL,-35.3333,-72.4167,67.06,37,0,16.93,clear sky
117,Longyearbyen,SJ,78.2186,15.6401,26.6,80,75,10.36,broken clouds
118,Krasnoselkup,RU,65.7,82.4667,3.22,94,100,12.53,overcast clouds
119,Ust-Nera,RU,64.5667,143.2,-25.87,76,100,2.66,overcast clouds
120,Lisakovsk,KZ,52.5369,62.4936,-16.94,88,74,6.26,broken clouds
121,Pevek,RU,69.7008,170.3133,-31.47,86,99,0.6,overcast clouds
122,Saint-Philippe,RE,-21.3585,55.7679,78.8,89,75,6.91,moderate rain
123,Naze,JP,28.3667,129.4833,49.59,68,30,12.12,scattered clouds
124,Narsaq,GL,60.9167,-46.05,41.0,48,75,6.91,broken clouds
125,Coihueco,CL,-36.6167,-71.8333,77.0,23,0,8.05,clear sky
126,Qaqortoq,GL,60.7167,-46.0333,41.0,48,75,6.91,broken clouds
127,Arica,CL,-18.475,-70.3042,75.2,57,0,14.97,clear sky
128,Cabra,ES,37.4725,-4.4421,41.0,75,0,3.22,clear sky
129,Kaitangata,NZ,-46.2817,169.8464,60.01,81,14,4.0,few clouds
130,El Astillero,ES,43.4009,-3.8205,48.0,76,75,5.75,broken clouds
131,Rongcheng,CN,30.634,117.8517,35.47,78,0,5.73,clear sky
132,Luderitz,NA,-26.6481,15.1594,69.82,67,4,22.7,clear sky
133,Chokurdakh,RU,70.6333,147.9167,-38.63,83,30,1.48,scattered clouds
134,Lujan,AR,-34.5703,-59.105,80.01,24,0,1.99,clear sky
135,Isangel,VU,-19.55,169.2667,81.82,76,100,4.63,overcast clouds
136,Nikolskoye,RU,59.7035,30.7861,12.2,79,90,20.13,snow
137,Kavaratti,IN,10.5669,72.642,79.27,76,100,27.13,overcast clouds
138,Korla,CN,41.7597,86.1469,16.34,85,8,2.39,clear sky
139,Takapau,NZ,-40.0333,176.35,60.01,90,40,1.01,scattered clouds
140,East London,ZA,-33.0153,27.9116,69.8,94,90,6.91,light rain
141,San Patricio,US,28.017,-97.5169,46.4,66,40,8.05,scattered clouds
142,Mount Isa,AU,-20.7333,139.5,80.6,65,41,1.14,scattered clouds
143,Da Lat,VN,11.9465,108.4419,47.1,98,0,3.62,clear sky
144,Lompoc,US,34.6391,-120.4579,62.01,58,1,2.51,clear sky
145,Noyabrsk,RU,63.1994,75.4507,-9.69,91,100,9.48,overcast clouds
146,Merauke,ID,-8.4667,140.3333,79.3,86,100,12.03,moderate rain
147,Opuwo,NA,-18.0607,13.84,72.21,44,100,10.27,overcast clouds
148,Brainerd,US,46.358,-94.2008,30.99,86,1,5.75,clear sky
149,Quarai,BR,-30.3875,-56.4514,79.32,63,100,10.07,overcast clouds
150,Sompeta,IN,18.9333,84.6,71.08,76,0,3.69,clear sky
151,Tuatapere,NZ,-46.1333,167.6833,55.99,86,100,1.01,overcast clouds
152,Beringovskiy,RU,63.05,179.3167,-16.04,86,100,13.27,overcast clouds
153,Acarau,BR,-2.8856,-40.12,82.13,70,96,15.1,overcast clouds
154,Puerto Ayora,EC,-0.7393,-90.3518,82.4,65,75,18.41,broken clouds
155,Nhulunbuy,AU,-12.2333,136.7667,80.6,89,75,3.49,broken clouds
156,Lumeje,AO,-11.55,20.7833,68.2,85,74,3.67,broken clouds
157,Elizabeth City,US,36.2946,-76.2511,50.0,71,40,5.75,scattered clouds
158,Rincon,US,32.296,-81.2354,50.0,81,90,9.22,overcast clouds
159,Kampong Chhnang,KH,12.1667,104.55,62.91,66,0,8.25,clear sky
160,Vostok,RU,46.4856,135.8833,5.0,92,100,2.59,overcast clouds
161,Vestmannaeyjar,IS,63.4427,-20.2734,37.4,93,75,35.68,broken clouds
162,Cherskiy,RU,68.75,161.3,-33.32,81,1,1.66,clear sky
163,Maniitsoq,GL,65.4167,-52.9,19.76,91,100,11.21,overcast clouds
164,Castro,BR,-24.7911,-50.0119,78.82,74,97,8.25,overcast clouds
165,Rundu,NA,-17.9333,19.7667,72.09,85,100,5.55,light rain
166,Izhma,RU,65.0083,53.9113,-14.1,88,83,1.99,broken clouds
167,Mastic Beach,US,40.7668,-72.8521,44.01,49,1,5.75,clear sky
168,Kasongo-Lunda,CD,-6.4667,16.8167,74.03,71,100,1.57,overcast clouds
169,Cape Town,ZA,-33.9258,18.4232,73.4,68,0,11.5,clear sky
170,Westport,US,41.1415,-73.3579,42.01,65,1,6.91,clear sky
171,Mayo,US,38.8876,-76.5119,48.0,65,1,9.22,clear sky
172,Vila,PT,42.0304,-8.1588,45.0,87,0,1.14,clear sky
173,Lorengau,PG,-2.0226,147.2712,83.08,78,68,11.97,broken clouds
174,Bathsheba,BB,13.2167,-59.5167,82.4,78,75,18.41,broken clouds
175,Americus,US,32.0724,-84.2327,50.0,76,90,5.75,overcast clouds
176,Rio Gallegos,AR,-51.6226,-69.2181,59.0,31,20,24.16,few clouds
177,Porto Santo,PT,33.072,-16.3415,57.2,58,40,10.36,scattered clouds
178,Manacapuru,BR,-3.2997,-60.6206,84.2,74,75,5.75,heavy intensity rain
179,Dunedin,NZ,-45.8742,170.5036,60.01,88,3,3.0,clear sky
180,Dhidhdhoo,MV,6.8833,73.1,75.61,91,100,11.27,overcast clouds
181,Burns Lake,CA,54.2331,-125.7533,30.2,86,0,2.3,clear sky
182,Conde,BR,-7.2597,-34.9075,84.2,65,40,10.36,scattered clouds
183,Nchelenge,ZM,-9.3451,28.734,71.94,82,74,6.49,moderate rain
184,Mahanje,TZ,-9.9333,35.3333,66.02,96,100,3.0,moderate rain
185,Orleans,US,30.0335,-89.9501,42.01,75,90,6.91,overcast clouds
186,Pasni,PK,25.2631,63.471,66.22,27,100,19.28,overcast clouds
187,Inhambane,MZ,-23.865,35.3833,82.4,78,40,2.3,scattered clouds
188,Uribia,CO,11.7139,-72.266,86.68,50,48,22.86,scattered clouds
189,Ahuimanu,US,21.4447,-157.8378,77.0,78,40,10.4,scattered clouds
190,Acapulco,MX,16.8634,-99.8901,86.0,58,20,5.75,few clouds
191,Danli,HN,14.0333,-86.5833,73.4,64,75,11.5,broken clouds
192,Kodiak,US,57.79,-152.4072,35.6,93,90,8.05,light snow
193,Kattivakkam,IN,13.2167,80.3167,78.8,89,40,5.75,mist
194,Sarakhs,IR,36.5449,61.1577,38.91,70,0,7.43,clear sky
195,Birao,CF,10.2849,22.7882,72.18,21,0,5.97,clear sky
196,Mitu,CO,1.1983,-70.1733,79.79,91,95,3.53,moderate rain
197,Suici,RO,45.25,24.5333,30.2,100,90,2.3,light snow
198,Shakiso,ET,5.75,38.9167,60.24,56,19,3.36,few clouds
199,Embonas,GR,36.2269,27.8564,66.2,77,75,13.8,broken clouds
200,Dingle,PH,10.9995,122.6711,71.76,86,100,9.42,overcast clouds
201,Naryan-Mar,RU,67.6713,53.087,-8.28,79,16,8.16,few clouds
202,Roald,NO,62.5833,6.1333,33.8,93,90,20.71,snow
203,Mulanur,IN,10.7667,77.7167,71.6,97,100,4.18,moderate rain
204,Sinnamary,GF,5.3833,-52.95,78.6,85,62,12.84,broken clouds
205,Saldanha,ZA,-33.0117,17.9442,77.0,50,0,5.75,clear sky
206,Cabo San Lucas,MX,22.8909,-109.9124,75.0,49,40,10.36,scattered clouds
207,Talnakh,RU,69.4865,88.3972,-15.72,88,100,11.83,light snow
208,San Quintin,MX,30.4833,-115.95,67.5,26,0,6.42,clear sky
209,Nalut,LY,30.3333,10.85,50.58,45,71,9.82,broken clouds
210,Benghazi,LY,32.1167,20.0667,62.4,62,100,18.57,overcast clouds
211,Cairns,AU,-16.9167,145.7667,77.0,94,40,6.91,scattered clouds
212,Kaa-Khem,RU,51.6833,94.7333,4.89,91,100,0.87,light snow
213,Tarakan,ID,3.3,117.6333,75.2,94,75,8.05,light rain
214,Mahebourg,MU,-20.4081,57.7,77.0,94,75,17.27,light rain
215,Tromso,NO,69.6496,18.957,19.4,79,0,4.61,clear sky
216,Hambantota,LK,6.1241,81.1185,75.2,100,75,3.44,light rain
217,Buta,CD,2.7858,24.73,74.93,54,0,1.83,clear sky
218,San Ramon,US,37.7799,-121.978,57.2,76,90,1.43,haze
219,Chicama,PE,-7.8447,-79.1469,79.32,58,26,12.41,scattered clouds
220,Burriana,ES,39.889,-0.085,41.0,65,0,5.41,clear sky
221,Loa Janan,ID,-0.583,117.095,74.98,96,100,1.23,light rain
222,Plouzane,FR,48.3833,-4.6167,50.0,93,90,13.8,overcast clouds
223,Sobolevo,RU,54.4299,31.8996,20.89,97,100,11.1,overcast clouds
224,Oytal,KZ,42.9057,73.2697,30.18,92,100,3.09,light snow
225,Detmold,DE,51.8,8.0,37.99,92,0,3.0,clear sky
226,Bethel,US,41.3712,-73.414,39.0,60,90,5.75,overcast clouds
227,Kakamigahara,JP,35.4167,136.8667,24.8,100,20,1.14,fog
228,Seoul,KR,37.5683,126.9778,23.0,93,40,6.91,mist
229,Snezhnogorsk,RU,69.1933,33.2531,-18.4,76,20,2.24,few clouds
230,Manyana,BW,-23.4,21.7167,77.36,63,41,1.63,light rain
231,Puerto Asis,CO,0.5133,-76.5007,80.6,78,75,4.61,broken clouds
232,Forbes,AU,-33.3833,148.0167,70.0,66,0,2.89,clear sky
233,Saint Anthony,US,45.0205,-93.218,35.01,69,1,6.91,light rain
234,Houma,US,29.5958,-90.7195,44.01,81,90,5.75,overcast clouds
235,Ilulissat,GL,69.2167,-51.1,17.6,79,75,2.3,snow
236,Costa Mesa,US,33.6411,-117.9187,70.0,24,75,3.44,broken clouds
237,Beira,MZ,-19.8436,34.8389,82.4,89,40,10.22,light rain
238,Mayumba,GA,-3.432,10.6554,78.6,85,100,8.25,overcast clouds
239,Lata,PT,40.1629,-8.3327,46.99,65,0,3.44,clear sky
240,Abnub,EG,27.2696,31.1511,64.4,48,0,9.22,clear sky
241,Tiksi,RU,71.6872,128.8694,-35.79,81,92,6.44,overcast clouds
242,Cardston,CA,49.2,-113.3019,46.4,46,100,9.22,overcast clouds
243,Waipawa,NZ,-41.4122,175.5153,70.0,82,75,11.5,broken clouds
244,Olafsvik,IS,64.8945,-23.7142,35.11,79,100,16.2,overcast clouds
245,Nome,US,64.5011,-165.4064,10.4,72,1,9.22,clear sky
246,Batagay,RU,67.6333,134.6333,-44.05,71,0,0.47,clear sky
247,Isla Vista,US,34.4133,-119.861,68.0,59,1,3.44,clear sky
248,Menongue,AO,-14.6585,17.691,65.66,88,100,2.44,light rain
249,Berlevag,NO,70.8578,29.0864,12.2,37,0,12.66,clear sky
250,Esperance,AU,-33.8667,121.9,57.2,82,19,5.75,few clouds
251,Flinders,AU,-34.5833,150.8552,70.0,88,43,1.01,scattered clouds
252,Touros,BR,-5.1989,-35.4608,75.2,94,75,6.91,broken clouds
253,Kidal,ML,18.4411,1.4078,75.04,17,4,8.46,clear sky
254,Japura,ID,-0.3167,102.35,72.55,96,100,2.59,overcast clouds
255,Gat,IL,31.61,34.7642,68.0,49,100,9.22,overcast clouds
256,Nabinagar,BD,23.8917,90.9733,68.0,77,40,3.44,haze
257,Sorland,NO,67.667,12.6934,35.6,60,75,29.93,broken clouds
258,Jacareacanga,BR,-6.2222,-57.7528,93.2,52,20,2.3,light rain
259,Asau,RO,46.4333,26.4,32.0,100,90,5.75,mist
260,Zhaotong,CN,27.3167,103.7167,30.04,96,8,3.13,clear sky
261,Ancud,CL,-41.8697,-73.8203,61.0,62,0,8.05,clear sky
262,Gornopravdinsk,RU,60.05,69.9,-23.28,86,50,3.89,scattered clouds
263,Namatanai,PG,-3.6667,152.4333,80.47,77,40,10.2,scattered clouds
264,Ixtapa,MX,20.7,-105.2,71.6,60,75,8.05,broken clouds
265,Praia Da Vitoria,PT,38.7333,-27.0667,59.0,94,75,7.27,light rain
266,Ongandjera,NA,-17.8833,15.0667,77.34,36,100,17.58,overcast clouds
267,Libertador General San Martin,AR,-23.8064,-64.7876,81.0,67,98,1.99,overcast clouds
268,Tari,NG,12.4086,4.4914,76.93,16,0,9.62,clear sky
269,Ulverstone,AU,-41.15,146.1667,62.01,76,100,8.81,overcast clouds
270,Dombas,NO,62.0696,9.1235,14.99,89,95,8.5,overcast clouds
271,Margate,GB,51.3813,1.3862,39.99,75,0,1.99,clear sky
272,Broome,US,42.2506,-75.833,34.0,69,90,4.94,overcast clouds
273,Parabel,RU,58.6978,81.4825,-25.24,86,95,4.94,overcast clouds
274,Blythe,US,33.6103,-114.5964,60.01,17,1,3.44,clear sky
275,Clarence Town,AU,-32.5833,151.7833,69.01,88,0,1.07,clear sky
276,Novyy Urgal,RU,51.0736,132.5642,-15.86,87,100,0.83,overcast clouds
277,Vila Velha,BR,-20.3297,-40.2925,84.2,58,20,16.11,few clouds
278,Blackwater,AU,-23.5833,148.8833,70.97,77,0,7.72,clear sky
279,Caravelas,BR,-17.7125,-39.2481,81.28,69,0,8.86,clear sky
280,Ishigaki,JP,24.3448,124.1572,59.38,62,5,17.36,clear sky
281,Pathardi,IN,19.1667,75.1833,71.22,51,0,3.27,clear sky
282,Popondetta,PG,-8.7537,148.2534,74.8,90,95,2.37,overcast clouds
283,Sri Aman,MY,1.2376,111.4621,75.2,94,97,1.95,overcast clouds
284,Ahipara,NZ,-35.1667,173.1667,67.35,81,8,7.31,clear sky
285,Alexandria,EG,31.2156,29.9553,66.2,72,0,5.75,clear sky
286,Labuhan,ID,-6.8844,112.2051,79.23,83,100,11.88,overcast clouds
287,Kavieng,PG,-2.5744,150.7967,82.74,77,51,15.43,broken clouds
288,Athabasca,CA,54.7169,-113.2854,21.2,73,100,3.44,overcast clouds
289,San Juan,AR,-31.5375,-68.5364,84.65,27,0,7.54,clear sky
290,Lahij,YE,13.1667,44.5833,67.75,63,4,7.34,clear sky
291,Karratha,AU,-20.7377,116.8463,87.46,58,0,12.46,clear sky
292,Onalaska,US,43.8844,-91.2351,35.01,69,1,5.75,clear sky
293,Antsohihy,MG,-14.8796,47.9875,76.68,91,3,0.76,clear sky
294,Redmond,US,47.674,-122.1215,54.0,96,100,7.65,moderate rain
295,Banikoara,BJ,11.2985,2.4386,77.88,17,0,5.82,clear sky
296,Quirinopolis,BR,-18.4483,-50.4517,79.84,72,85,7.72,moderate rain
297,Swan River,CA,52.1058,-101.2676,28.4,64,18,12.66,few clouds
298,Khambhaliya,IN,22.2072,69.6683,67.14,34,0,8.84,clear sky
299,Jacmel,HT,18.2342,-72.5347,89.6,40,20,18.41,few clouds
300,College,US,64.8569,-147.8028,1.4,78,40,2.71,scattered clouds
301,Guerrero Negro,MX,27.9769,-114.0611,69.4,24,0,5.59,clear sky
302,Morondava,MG,-20.2833,44.2833,84.83,76,12,9.6,few clouds
303,Coquimbo,CL,-29.9533,-71.3436,64.4,68,20,16.11,few clouds
304,Torgau,DE,51.5667,13.0,36.0,93,75,11.5,broken clouds
305,Omboue,GA,-1.5746,9.2618,78.15,88,100,7.78,moderate rain
306,Brigantine,US,39.4101,-74.3646,46.99,45,1,6.91,clear sky
307,Zhanakorgan,KZ,43.9098,67.2495,24.44,99,72,2.26,broken clouds
308,Les Cayes,HT,18.2,-73.75,80.44,67,100,8.46,overcast clouds
309,Yakeshi,CN,49.2833,120.7333,-8.05,90,100,6.4,overcast clouds
310,Luorong,CN,24.4058,109.6086,44.17,53,24,2.08,few clouds
311,Kopeysk,RU,55.131,61.6792,-16.6,76,0,8.95,clear sky
312,Mayya,RU,61.7333,130.2811,-58.0,57,82,3.27,fog
313,Havoysund,NO,70.9963,24.6622,21.2,67,100,23.02,overcast clouds
314,Alofi,NU,-19.0595,-169.9187,80.6,89,75,6.91,broken clouds
315,Kyshtovka,RU,56.555,76.6271,-21.21,84,0,7.61,clear sky
316,Kabo,CF,7.6994,18.629,76.01,18,0,4.21,clear sky
317,Vanimo,PG,-2.6741,141.3028,78.15,85,100,3.85,overcast clouds
318,Helena,US,46.5927,-112.0361,46.99,59,1,4.61,clear sky
319,Barpeta,IN,26.3167,91.0,60.8,88,75,3.67,mist
320,La Ronge,CA,55.1001,-105.2842,35.6,60,0,4.61,clear sky
321,Guapore,BR,-28.8456,-51.8903,79.0,79,55,6.02,broken clouds
322,Kruisfontein,ZA,-34.0033,24.7314,71.01,86,100,5.99,overcast clouds
323,Somerset,US,40.5668,-74.5496,44.6,39,1,4.61,clear sky
324,Port Blair,IN,11.6667,92.75,77.81,77,49,11.39,scattered clouds
325,Beyneu,KZ,45.3167,55.2,24.22,94,77,8.9,broken clouds
326,Evans,US,33.5337,-82.1307,50.0,76,90,4.72,overcast clouds
327,Hamina,FI,60.5697,27.1979,17.01,86,90,19.57,light snow
328,Springville,US,40.1652,-111.6107,34.0,74,1,4.61,clear sky
329,Sao Felix Do Xingu,BR,-6.6447,-51.995,81.91,84,71,1.1,moderate rain
330,Yacuiba,BO,-22.038,-63.6797,69.8,94,90,11.5,light rain
331,Namibe,AO,-15.1961,12.1522,72.75,75,99,9.46,overcast clouds
332,Bouca,CF,6.5105,18.2733,73.08,20,48,3.06,scattered clouds
333,Codrington,AU,-38.2667,141.9667,49.35,93,76,8.14,broken clouds
334,Kismayo,SO,-0.3582,42.5454,77.45,79,0,17.45,clear sky
335,Tautira,PF,-17.7333,-149.15,84.0,69,75,5.75,light rain
336,Tianpeng,CN,30.9866,103.9393,39.99,93,0,4.47,mist
337,Rosetown,CA,51.5501,-108.0014,25.0,86,39,5.75,scattered clouds
338,Kitaibaraki,JP,36.7833,140.75,39.99,73,0,6.24,clear sky
339,Matay,EG,28.419,30.7792,63.95,32,100,4.07,overcast clouds
340,Nago,JP,26.5881,127.9761,55.4,71,75,3.44,broken clouds
341,Killybegs,IE,54.6333,-8.45,41.0,81,90,10.36,heavy intensity rain
342,Pilar,BR,-9.5972,-35.9567,84.2,70,75,13.8,broken clouds
343,Obigarm,TJ,38.7173,69.7088,26.1,59,0,6.82,clear sky
344,Loandjili,CG,-4.7561,11.8578,80.6,83,40,6.91,scattered clouds
345,Santa Rosa,PH,14.3122,121.1114,75.0,83,20,10.69,few clouds
346,Harper,LR,4.375,-7.7169,79.14,83,48,8.55,moderate rain
347,Port Keats,AU,-14.25,129.55,83.95,84,94,6.13,overcast clouds
348,Tabou,CI,4.423,-7.3528,78.51,84,83,7.9,light rain
349,Kaoma,ZM,-14.7833,24.8,68.77,90,100,2.86,light rain
350,Sabang,ID,5.8933,95.3214,81.19,78,100,21.54,overcast clouds
351,Hobbs,US,32.7026,-103.136,37.99,75,1,6.91,clear sky
352,Clyde River,CA,70.4692,-68.5914,-5.8,84,75,4.61,broken clouds
353,Kahului,US,20.8947,-156.47,77.0,65,20,8.05,few clouds
354,Bara,NG,10.3744,10.7288,74.79,19,0,8.14,clear sky
355,Norman Wells,CA,65.282,-126.8329,-14.8,76,20,3.44,few clouds
356,Egvekinot,RU,66.3167,-179.1667,-12.12,87,100,14.18,overcast clouds
357,Mana,GF,5.6592,-53.7767,80.06,79,80,12.66,broken clouds
358,Qarqin,AF,37.4185,66.0436,36.19,72,0,6.71,clear sky
359,Butembo,CD,0.15,29.2833,59.4,87,5,2.66,clear sky
360,Belaya Gora,RU,68.5333,146.4167,-42.32,81,93,2.28,overcast clouds
361,Saint-Jean-Port-Joli,CA,47.2171,-70.2658,32.0,80,28,6.91,scattered clouds
362,Vitim,RU,59.4511,112.5578,-20.6,83,100,7.02,overcast clouds
363,Mezen,RU,65.8522,44.24,-11.51,86,93,3.31,overcast clouds
364,Kijang,KR,35.2442,129.2139,23.0,74,20,4.61,few clouds
365,Tual,ID,-5.6667,132.75,84.04,73,100,6.2,moderate rain
366,Del Rio,US,29.3627,-100.8968,48.2,57,1,5.75,clear sky
367,Muros,ES,42.7762,-9.0603,41.0,88,8,3.0,clear sky
368,Port Hawkesbury,CA,45.6169,-61.3485,37.0,86,100,3.0,moderate rain
369,Kampong Cham,KH,11.9934,105.4635,63.7,69,0,8.68,clear sky
370,Hitoyoshi,JP,32.2167,130.75,33.01,86,84,5.99,broken clouds
371,Muravlenko,RU,63.7898,74.523,-9.15,91,98,11.56,overcast clouds
372,Cururupu,BR,-1.8283,-44.8683,79.3,87,100,3.76,overcast clouds
373,Norrtalje,SE,59.758,18.705,30.99,87,0,4.5,clear sky
374,Murray Bridge,AU,-35.1167,139.2667,55.99,93,94,1.32,overcast clouds
375,Sept-Iles,CA,50.2001,-66.3821,24.01,58,35,2.3,scattered clouds
376,Bonavista,CA,48.6499,-53.1147,30.0,86,98,4.61,overcast clouds
377,Chapais,CA,49.7834,-74.8492,24.8,93,90,8.05,light snow
378,Coihaique,CL,-45.5752,-72.0662,59.0,47,40,6.91,scattered clouds
379,Adrar,MR,20.5022,-10.0711,66.85,25,100,9.55,overcast clouds
380,Mareeba,AU,-17.0,145.4333,77.0,94,40,6.91,scattered clouds
381,Alamosa,US,37.4695,-105.87,26.6,36,1,0.38,clear sky
382,Umm Lajj,SA,25.0213,37.2685,75.92,34,0,8.84,clear sky
383,Mehamn,NO,71.0357,27.8492,14.0,52,0,13.8,clear sky
384,Kauswagan,PH,8.1917,124.0847,75.99,92,100,5.99,overcast clouds
385,Ponta Delgada,PT,37.7333,-25.6667,60.8,94,40,14.97,moderate rain
386,Prince Rupert,CA,54.3161,-130.3201,41.0,81,90,9.22,light rain
387,Kotaparh,IN,19.15,82.35,62.29,57,11,1.43,few clouds
388,Honiara,SB,-9.4333,159.95,75.78,86,100,4.12,light rain
389,Kawalu,ID,-7.3817,108.2082,72.91,89,100,1.97,overcast clouds
390,Roebourne,AU,-20.7833,117.1333,87.31,57,32,10.45,light rain
391,Paamiut,GL,61.994,-49.6678,25.36,95,100,19.71,overcast clouds
392,Diego De Almagro,CL,-26.3667,-70.05,83.77,16,0,14.32,clear sky
393,Port Hedland,AU,-20.3167,118.5667,84.2,89,0,13.8,clear sky
394,Bonthe,SL,7.5264,-12.505,78.84,83,37,8.34,scattered clouds
395,Bakchar,RU,57.0186,82.0711,-24.83,85,0,4.65,clear sky
396,Dong Hoi,VN,17.4833,106.6,54.27,68,41,6.64,scattered clouds
397,Haines Junction,CA,60.7522,-137.5108,17.6,93,100,1.61,light snow
398,Eureka,US,40.8021,-124.1637,57.0,91,100,10.0,moderate rain
399,Grand Gaube,MU,-20.0064,57.6608,79.0,86,84,8.99,light rain
400,Jacqueville,CI,5.2052,-4.4146,77.0,83,20,6.91,few clouds
401,Innisfail,AU,-17.5333,146.0333,76.44,93,98,3.83,overcast clouds
402,Denizli,TR,37.8402,29.0698,51.8,62,75,9.22,broken clouds
403,Kurkino,RU,53.4257,38.6582,7.03,95,26,6.31,scattered clouds
404,Oussouye,SN,12.485,-16.5469,78.8,50,0,4.61,clear sky
405,Chachapoyas,PE,-6.2317,-77.869,63.9,75,69,4.27,moderate rain
406,Monrovia,LR,6.3005,-10.7969,78.8,94,75,9.19,broken clouds
407,Hervey Bay,AU,-25.2986,152.8535,69.01,88,7,3.0,clear sky
408,Bandarbeyla,SO,9.4942,50.8122,73.08,74,28,24.74,scattered clouds
409,Murgab,TM,37.4966,61.9714,37.4,87,0,4.61,clear sky
410,Rognan,NO,67.0953,15.3878,28.4,54,0,28.77,clear sky
411,San Pedro De Ycuamandiyu,PY,-24.0917,-57.0764,96.49,41,61,2.77,heavy intensity rain
412,Lavrentiya,RU,65.5833,-171.0,-10.41,86,2,9.22,clear sky
413,Ribeira Grande,PT,38.5167,-28.7,60.8,100,75,13.8,broken clouds
414,Meulaboh,ID,4.1363,96.1285,75.6,86,78,4.76,broken clouds
415,Campbell River,CA,50.0163,-125.2446,50.0,100,90,2.3,mist
416,Mogadishu,SO,2.0371,45.3438,76.8,79,50,21.63,scattered clouds
417,Easton,US,40.6884,-75.2207,43.0,48,1,5.75,clear sky
418,Vao,NC,-22.6667,167.4833,77.83,86,96,21.36,overcast clouds
419,Lake Havasu City,US,34.4839,-114.3224,55.99,19,1,4.61,clear sky
420,Kashan,IR,33.9831,51.4364,44.42,52,0,2.15,clear sky
421,Katsuura,JP,35.1333,140.3,35.6,93,20,3.44,mist
422,Constantine,DZ,36.365,6.6147,39.2,81,40,10.36,scattered clouds
423,Samoded,RU,63.6083,40.5111,-14.89,88,0,4.05,clear sky
424,Coari,BR,-4.085,-63.1414,83.12,82,86,2.01,light rain
425,Pisco,PE,-13.7,-76.2167,77.0,65,0,11.5,clear sky
426,Hede,CN,33.7681,120.2517,35.22,81,0,11.54,clear sky
427,Aklavik,CA,68.2191,-135.0107,3.2,85,100,1.14,overcast clouds
428,Tadine,NC,-21.55,167.8833,79.2,86,19,13.65,few clouds
429,Sitka,US,57.0531,-135.33,41.0,87,90,26.46,light rain
430,Zapolyarnyy,RU,69.4154,30.8136,-4.0,84,0,3.44,clear sky
431,Korem,ET,12.5058,39.5228,50.52,82,91,5.59,overcast clouds
432,Guane,CU,22.2025,-84.0875,74.82,78,80,9.95,broken clouds
433,Erenhot,CN,43.6475,111.9767,5.61,91,96,11.36,overcast clouds
434,Valera,VE,9.3178,-70.6036,80.98,49,100,3.4,overcast clouds
435,Ust-Maya,RU,60.4167,134.5333,-46.26,75,96,2.04,overcast clouds
436,Teseney,ER,15.11,36.6575,70.65,50,0,11.95,clear sky
437,Kushiro,JP,42.975,144.3747,34.59,96,100,12.93,light snow
438,Diamantino,BR,-14.4086,-56.4461,86.22,63,100,2.42,overcast clouds
439,Svetlyy,RU,54.675,20.1347,32.0,100,90,6.71,snow
440,Urucara,BR,-2.5364,-57.76,86.47,66,100,1.74,overcast clouds
441,Kapit,MY,2.0167,112.9333,74.17,95,100,0.63,overcast clouds
442,Kloulklubed,PW,7.0419,134.2556,83.7,74,78,6.71,broken clouds
443,Llallagua,BO,-18.4167,-66.6333,66.2,42,75,9.22,light rain
444,Anadyr,RU,64.75,177.4833,-20.0,76,96,11.18,light snow
445,Chimbarongo,CL,-34.7,-71.05,97.0,21,0,5.75,clear sky
446,Evensk,RU,61.95,159.2333,-4.52,85,99,2.13,overcast clouds
447,Kushima,JP,31.4583,131.2333,33.01,86,13,5.99,few clouds
448,Karaidel,RU,55.8337,56.9069,-4.22,91,99,4.07,overcast clouds
449,Male,MV,4.1748,73.5089,82.4,83,75,17.27,broken clouds
450,Aberystwyth,GB,52.4155,-4.0829,39.0,100,95,4.27,overcast clouds
451,Nyon,CH,46.3832,6.2396,33.8,93,75,2.3,light rain
452,Maine-Soroa,NE,13.2114,12.0241,71.76,19,0,8.08,clear sky
453,Takoradi,GH,4.8845,-1.7554,79.39,85,26,9.86,light rain
454,Conakry,GN,9.538,-13.6773,81.16,75,0,11.83,clear sky
455,Cooma,AU,-36.2333,149.1333,57.2,88,1,10.36,clear sky
456,Severo-Kurilsk,RU,50.6789,156.125,18.61,90,94,11.18,light snow
457,Terney,RU,45.0503,136.6092,16.95,87,100,4.36,light snow
458,Honningsvag,NO,70.9821,25.9704,17.6,67,100,23.02,overcast clouds
459,Chaumont,FR,48.1167,5.1333,42.01,94,100,8.01,overcast clouds
460,Mount Gambier,AU,-37.8333,140.7667,46.4,93,91,3.44,overcast clouds
461,Richards Bay,ZA,-28.783,32.0377,74.82,87,0,2.91,clear sky
462,Tigil,RU,57.8,158.6667,8.64,96,100,5.41,snow
463,Teknaf,BD,20.8624,92.3058,65.95,70,54,7.4,broken clouds
464,Sesheke,ZM,-17.4759,24.2968,70.92,92,81,4.32,moderate rain
465,Quixeramobim,BR,-5.1992,-39.2928,90.77,40,85,6.38,overcast clouds
466,Portland,US,45.5234,-122.6762,55.99,94,100,4.0,overcast clouds
467,Marsa Matruh,EG,31.3525,27.2453,62.6,51,0,11.5,clear sky
468,Sorata,BO,-15.7667,-68.6333,55.94,66,99,9.93,light rain
469,Oskemen,KZ,49.9565,82.6119,24.8,68,90,11.18,light snow
470,Aksarka,RU,66.5606,67.7975,-5.94,86,0,6.24,clear sky
471,Artyom,AZ,40.4723,50.333,44.6,100,90,4.61,light rain
472,Sovetskiy,RU,61.3614,63.5842,-17.23,86,79,3.47,broken clouds
473,Cozumel,MX,20.5083,-86.9458,79.0,78,75,10.36,light rain
474,Zhanaozen,KZ,43.3,52.8,28.78,94,70,9.75,broken clouds
475,Nadvoitsy,RU,63.8667,34.3167,-1.23,93,75,12.62,broken clouds
476,Najran,SA,17.4924,44.1277,53.6,47,0,1.41,clear sky
477,Yulara,AU,-25.2406,130.9889,78.8,24,0,5.75,clear sky
478,Hermiston,US,45.8404,-119.2895,54.0,87,75,6.91,light rain
479,Goderich,CA,43.7501,-81.7165,32.0,86,100,3.44,overcast clouds
480,Hot Springs,US,34.5037,-93.0552,50.0,43,1,3.69,clear sky
481,Pangnirtung,CA,66.1451,-65.7125,3.2,92,90,4.61,light snow
482,Kapustin Yar,RU,48.5831,45.7372,25.52,91,100,4.85,overcast clouds
483,Shingu,JP,33.7333,135.9833,33.66,91,3,6.22,clear sky
484,Komsomolskiy,UZ,40.4272,71.7189,33.8,60,100,4.61,mist
485,Klaksvik,FO,62.2266,-6.589,32.0,74,100,2.3,overcast clouds
486,Yuanping,CN,38.7153,112.7575,21.47,73,0,4.25,clear sky
487,Pocone,BR,-16.2567,-56.6228,94.75,40,62,1.99,broken clouds
488,Ales,FR,44.1333,4.0833,46.4,57,0,11.5,clear sky
489,Nelson Bay,AU,-32.7167,152.15,69.01,88,0,11.59,clear sky
490,Lashio,MM,22.9333,97.75,55.15,80,99,1.16,overcast clouds
491,Grootfontein,NA,-19.5667,18.1167,68.0,94,100,1.14,light rain
492,Saint-Augustin,CA,51.226,-58.6502,19.9,84,68,5.5,broken clouds
493,Qasigiannguit,GL,68.8193,-51.1922,17.6,79,75,2.3,snow
494,Roswell,US,34.0232,-84.3616,44.01,87,90,11.5,overcast clouds
495,Itirucu,BR,-13.5317,-40.1503,72.9,88,3,8.03,light rain
496,Solginskiy,RU,61.05,41.3428,-20.74,87,74,4.99,broken clouds
497,Ormara,PK,25.2088,64.6357,69.13,33,31,0.11,scattered clouds
498,Mlandizi,TZ,-6.7,38.7333,80.6,83,40,13.8,scattered clouds
499,Khani,GE,41.9563,42.9566,55.4,71,90,18.41,overcast clouds
500,Sim,RU,54.993,57.6982,-2.94,90,100,0.67,overcast clouds
501,Ryomgard,DK,56.3843,10.503,35.6,87,40,12.66,scattered clouds
502,Pacific Grove,US,36.6177,-121.9166,57.0,71,20,4.61,few clouds
503,Tanggu,CN,39.0211,117.6469,28.4,40,0,4.47,haze
504,Imelda,PH,7.65,123.95,77.14,83,99,4.03,overcast clouds
505,Makubetsu,JP,45.3714,141.8211,26.53,98,100,8.52,light snow
506,Galle,LK,6.0367,80.217,77.67,81,93,12.95,heavy intensity rain
507,Sur,OM,22.5667,59.5289,66.0,53,0,7.63,clear sky
508,Cockburn Town,TC,21.4612,-71.1419,82.4,65,40,13.8,light rain
509,Binay,PH,13.5028,122.5975,74.14,78,56,13.51,broken clouds
510,High Level,CA,58.5169,-117.136,12.2,100,75,2.3,broken clouds
511,Lazaro Cardenas,MX,17.9583,-102.2,84.22,44,0,8.3,clear sky
512,Campina Verde,BR,-19.5356,-49.4864,81.45,69,100,2.57,light rain
513,Nisia Floresta,BR,-6.0911,-35.2086,80.6,78,40,9.22,scattered clouds
514,Sao Filipe,CV,14.8961,-24.4956,70.95,71,18,13.33,few clouds
515,Sao Geraldo Do Araguaia,BR,-6.4006,-48.555,85.42,76,33,1.68,light rain
516,Los Llanos De Aridane,ES,28.6585,-17.9182,60.8,72,40,6.91,scattered clouds
517,Fort Morgan,US,40.2503,-103.8,41.0,33,1,11.5,clear sky
518,Mulchen,CL,-37.7167,-72.2333,78.8,19,0,13.8,clear sky
519,Eydhafushi,MV,5.1033,73.0708,80.6,78,100,19.48,overcast clouds
520,Melito Di Porto Salvo,IT,37.9222,15.7714,51.8,62,40,11.5,scattered clouds
521,Semey,KZ,50.4111,80.2275,18.05,93,100,13.89,overcast clouds
522,Spokane,US,47.6166,-117.3677,42.01,93,90,17.27,moderate rain
523,Sakaiminato,JP,35.55,133.2333,33.8,93,75,5.75,broken clouds
524,Katy,US,29.7858,-95.8244,51.01,57,90,1.39,overcast clouds
525,Castilho,BR,-20.8722,-51.4875,91.27,46,100,2.59,light rain
526,Vozuca,BA,44.3614,18.3578,30.2,100,90,1.14,mist
527,Hamilton,US,39.1834,-84.5333,33.01,69,90,13.8,overcast clouds
528,Pochutla,MX,15.7432,-96.4661,89.6,43,40,8.05,scattered clouds
529,Asbe Teferi,ET,9.0833,40.8667,57.42,60,0,2.42,clear sky
530,Finale Ligure,IT,44.1695,8.3436,41.0,86,0,3.44,clear sky
531,Ler,SS,8.3018,30.1418,78.85,18,0,5.08,clear sky
532,Polis,CY,35.0367,32.4264,66.2,63,0,14.97,clear sky
533,Ellsworth,US,44.5434,-68.4195,36.0,69,90,5.75,overcast clouds
534,Catamarca,AR,-28.4696,-65.7852,81.0,67,18,8.01,few clouds
535,Brae,GB,60.3964,-1.353,37.4,81,40,12.66,scattered clouds
536,Sombrio,BR,-29.1139,-49.6167,77.83,81,97,7.05,overcast clouds
537,Homer,US,59.6425,-151.5483,34.0,93,1,4.61,clear sky
538,Capim Grosso,BR,-11.3811,-40.0128,88.29,44,85,10.47,overcast clouds
539,Caconda,AO,-13.7333,15.0667,62.74,64,100,6.49,overcast clouds
540,Barabinsk,RU,55.3571,78.357,-14.76,86,99,13.04,overcast clouds
541,Tilichiki,RU,60.4667,166.1,-22.65,85,71,8.93,broken clouds
542,Manggar,ID,-2.8833,108.2667,77.76,89,100,11.5,moderate rain
543,Payo,ID,-3.7508,103.6372,72.19,97,100,4.14,light rain
544,Hami,CN,42.8,93.45,15.85,81,6,3.74,clear sky
545,Tateyama,JP,34.9833,139.8667,33.8,93,20,3.44,mist
546,Jiuquan,CN,39.7432,98.5174,21.83,65,54,2.8,broken clouds
547,Fuyu,CN,45.1833,124.8167,2.39,94,94,7.18,overcast clouds
548,Makokou,GA,0.5738,12.8642,71.46,92,0,2.66,clear sky
549,Paralimni,CY,35.0375,33.9833,64.99,88,0,4.61,clear sky
550,San Policarpo,PH,12.1791,125.5072,78.49,88,100,17.92,overcast clouds
551,Buxar,IN,25.5833,83.9833,47.71,62,0,5.57,clear sky
552,Maragogi,BR,-9.0122,-35.2225,80.49,73,43,12.8,scattered clouds
553,Coromandel,BR,-18.4733,-47.2003,77.34,81,99,3.74,overcast clouds
554,Nemuro,JP,43.3236,145.575,32.54,97,99,14.88,overcast clouds
555,Susanville,US,40.4163,-120.653,39.99,75,75,5.01,broken clouds
556,Plettenberg Bay,ZA,-34.0527,23.3716,70.3,92,95,15.7,light rain
557,Muleba,TZ,-1.8397,31.6544,69.8,88,20,1.79,few clouds
558,Aras,ES,42.5617,-2.356,39.99,75,40,9.22,scattered clouds
559,Bonfim,BR,3.0833,-59.95,87.8,66,40,13.8,scattered clouds
560,Makat,KZ,47.6469,53.3463,10.78,94,1,7.87,clear sky
561,La Paz,BO,-16.5,-68.15,50.0,81,75,4.61,moderate rain
562,Zamora,EC,-4.0692,-78.9567,82.4,42,75,9.22,light rain
563,Henties Bay,NA,-22.116,14.2845,70.0,85,100,6.24,overcast clouds
564,Mogok,MM,22.9167,96.5,53.55,100,98,3.4,moderate rain
565,Kieta,PG,-6.2167,155.6333,79.14,80,100,3.36,overcast clouds
566,Marsh Harbour,BS,26.5412,-77.0636,75.02,72,99,4.36,overcast clouds
567,Lafayette,US,30.2335,-92.0668,48.99,49,1,12.66,clear sky
568,Boa Vista,BR,2.8197,-60.6733,87.8,48,75,11.5,broken clouds
569,Yvetot,FR,49.6174,0.7581,46.0,94,88,1.01,overcast clouds
570,Bilibino,RU,68.0546,166.4372,-25.74,78,22,5.55,few clouds
571,Filingue,NE,14.3521,3.3168,78.82,15,0,10.38,clear sky
572,Soyo,AO,-6.1349,12.3689,79.18,78,1,9.71,clear sky
573,Praya,CV,14.9215,-23.5087,73.4,64,75,18.41,broken clouds
574,Alta Floresta,BR,-9.8756,-56.0861,77.0,100,75,5.75,light rain
575,Sawakin,SD,19.1059,37.3321,77.86,64,0,8.32,clear sky
576,Tutoia,BR,-2.7619,-42.2744,87.8,66,40,14.97,scattered clouds
577,La Union,PE,-5.4,-80.75,87.84,41,0,19.48,clear sky
578,Shahr-E Babak,IR,30.1165,55.1186,39.49,57,20,2.51,few clouds
579,Chandler,US,33.3062,-111.8412,64.0,17,1,1.72,clear sky
580,Ngunguru,NZ,-35.6167,174.5,66.99,92,13,4.0,few clouds
581,Nouadhibou,MR,20.931,-17.0347,68.0,60,0,10.36,clear sky
582,Joao Camara,BR,-5.5375,-35.8197,75.2,94,75,6.91,broken clouds
583,Vardo,NO,70.3705,31.1107,8.6,66,20,18.41,few clouds
584,Phalaborwa,ZA,-23.943,31.1411,78.8,69,0,2.3,clear sky
585,Saint-Paul,RE,-21.0096,55.2707,78.8,94,75,13.8,broken clouds
586,Paita,PE,-5.0892,-81.1144,87.8,45,0,18.41,clear sky
587,Zubtsov,RU,56.1753,34.5894,16.14,97,100,6.44,overcast clouds
588,Jaciara,BR,-15.9653,-54.9683,87.69,55,42,4.59,scattered clouds
589,Abha,SA,18.2164,42.5053,50.0,76,40,7.2,scattered clouds
590,Gawler,AU,-34.6,138.7333,64.0,51,85,7.0,overcast clouds
591,Lishan,CN,31.8576,113.2951,36.1,82,0,4.92,clear sky
592,Garowe,SO,8.4054,48.4845,69.24,49,0,16.58,clear sky
593,Bull Savanna,JM,17.8868,-77.5902,78.58,75,97,11.3,overcast clouds
594,Kuching,MY,1.55,110.3333,75.2,100,40,8.05,moderate rain
595,Kalmar,SE,56.6616,16.3616,30.99,100,20,4.61,few clouds
596,Brownsville,US,25.9018,-97.4975,51.8,54,90,12.66,overcast clouds
597,Phan Thiet,VN,10.9333,108.1,65.52,76,0,7.16,clear sky
598,Pietersburg,ZA,-23.9045,29.4688,71.6,68,0,8.05,clear sky
599,Tatarsk,RU,55.219,75.9828,-11.72,87,100,14.34,overcast clouds
600,Sibu,MY,2.3,111.8167,77.0,94,40,2.3,light rain
601,Takaka,NZ,-40.85,172.8,63.0,85,0,1.01,clear sky
602,Lamesa,US,32.7376,-101.951,37.99,75,1,8.05,clear sky
603,Camacha,PT,33.0833,-16.3333,57.2,58,40,10.36,scattered clouds
604,Royan,FR,45.6285,-1.0281,50.0,100,90,11.5,drizzle
605,Ugoofaaru,MV,5.6667,73.0,80.17,81,100,21.18,moderate rain
606,Beloha,MG,-25.1667,45.05,75.83,82,4,12.06,clear sky
607,Ratnagiri,IN,16.9833,73.3,78.96,60,19,4.34,few clouds
608,Kiama,AU,-34.6833,150.8667,70.0,93,8,3.0,clear sky
609,Champerico,GT,14.3,-91.9167,91.4,55,0,9.22,clear sky
610,Ilhabela,BR,-23.7781,-45.3581,81.91,77,79,2.39,broken clouds
611,Mapimi,MX,25.8167,-103.85,48.2,49,1,5.3,clear sky
612,Anan,JP,33.9167,134.65,32.0,93,40,3.44,scattered clouds
613,Itoman,JP,26.1247,127.6694,55.4,58,75,14.97,broken clouds
614,Kjollefjord,NO,70.9457,27.3465,14.0,52,0,13.8,clear sky
615,Taoudenni,ML,22.6783,-3.9836,64.8,26,99,12.41,overcast clouds
616,Lakeway,US,30.3638,-97.9796,51.01,57,1,4.61,clear sky
617,Gigmoto,PH,13.7796,124.39,75.6,81,95,15.41,overcast clouds
618,Ostrovnoy,RU,68.0531,39.5131,3.83,90,0,18.92,clear sky
619,Shenjiamen,CN,29.9576,122.298,44.15,61,0,16.62,clear sky
620,Ciudad Bolivar,VE,8.1222,-63.5497,86.85,52,98,9.42,overcast clouds
621,Jardim,BR,-21.4803,-56.1381,94.78,41,62,2.17,broken clouds
622,Belyy Yar,RU,53.6039,91.3903,-11.2,77,0,4.47,light snow
623,Marquette,US,46.5333,-87.6335,30.0,78,100,4.0,overcast clouds
624,Moron,AR,-34.6534,-58.6198,82.0,20,0,1.99,clear sky
625,Tura,IN,25.5198,90.2201,56.89,48,0,2.77,clear sky
626,Palmer,US,42.1584,-72.3287,37.99,56,75,6.91,broken clouds
627,North Bend,US,43.4065,-124.2243,59.0,88,90,13.8,overcast clouds
628,Provideniya,RU,64.3833,-173.3,-11.16,83,68,10.09,broken clouds
629,Bodden Town,KY,19.2833,-81.25,84.2,74,40,13.8,scattered clouds
630,Gazipur,BD,23.9981,90.423,68.0,77,40,4.61,haze
631,Bukoba,TZ,-1.3317,31.8122,69.8,88,20,2.55,few clouds
632,Bongandanga,CD,1.5,21.05,76.39,44,18,1.74,few clouds
633,Coruripe,BR,-10.1256,-36.1756,81.07,73,57,15.55,broken clouds
634,Dodoma,TZ,-6.1722,35.7395,69.8,94,75,3.6,broken clouds
635,Carauari,BR,-4.8828,-66.8958,89.42,54,24,3.65,few clouds
636,Las Vegas,US,36.175,-115.1372,54.0,22,1,3.44,clear sky
637,Whitehorse,CA,60.7161,-135.0538,21.2,93,90,4.99,light snow
638,The Valley,AI,18.217,-63.0578,84.2,58,40,14.97,scattered clouds
639,Lerwick,GB,60.1545,-1.1494,37.4,81,40,12.66,scattered clouds
640,Dickinson,US,29.4608,-95.0513,51.01,53,75,8.05,broken clouds
641,Shakawe,BW,-18.3667,21.85,75.63,70,87,3.91,light rain
642,Mahibadhoo,MV,3.7833,72.9667,81.97,70,100,19.01,overcast clouds
643,Siklos,HU,45.855,18.2975,30.2,93,0,6.91,clear sky
644,Sawankhalok,TH,17.316,99.8319,57.49,58,0,8.32,clear sky
645,Zhuhai,CN,22.2769,113.5678,48.2,56,0,4.61,clear sky
646,Shangrao,CN,28.4532,117.9686,33.98,79,0,1.77,clear sky
647,Osoyoos,CA,49.0331,-119.4524,37.4,93,100,8.05,overcast clouds
648,Luanda,AO,-8.8368,13.2343,78.8,78,20,6.91,few clouds
649,Tiarei,PF,-17.5333,-149.3333,84.0,69,75,5.75,light rain
650,Bay Roberts,CA,47.5999,-53.2648,32.0,78,100,8.43,overcast clouds
651,Bima,ID,-8.4667,118.7167,78.21,85,100,3.65,overcast clouds
652,Baherden,TM,38.4362,57.4316,38.32,70,0,5.95,clear sky
653,Cam Ranh,VN,11.9214,109.1591,69.8,73,40,13.8,scattered clouds
654,Ligayan,PH,4.6533,119.4706,79.83,82,100,16.96,overcast clouds
655,Paka,MY,4.6374,103.4368,73.4,94,100,10.36,overcast clouds
656,Jatiroto,ID,-7.8833,111.1167,75.18,87,100,1.43,overcast clouds
657,General Roca,AR,-39.0333,-67.5833,78.8,24,0,5.75,clear sky
658,Hasaki,JP,35.7333,140.8333,32.0,100,20,3.44,fog
659,Tambacounda,SN,13.7539,-13.7586,87.8,16,0,6.91,clear sky
660,Yumen,CN,40.2833,97.2,19.83,66,46,24.85,scattered clouds
661,Pokhara,NP,28.2333,83.9833,49.98,71,1,2.57,clear sky
662,Vung Tau,VN,10.346,107.0843,72.45,74,0,9.17,clear sky
663,Tecoanapa,MX,16.5167,-98.75,82.96,59,0,9.55,clear sky
664,Bendigo,AU,-36.7667,144.2833,54.0,50,0,3.87,clear sky
665,Boralday,KZ,43.3578,76.8594,32.0,59,90,4.47,smoke
666,Giyani,ZA,-23.3025,30.7187,78.84,53,0,4.61,clear sky
667,Fond Du Lac,US,43.775,-88.4388,32.0,80,90,5.75,overcast clouds
668,Thyboron,DK,56.6985,8.2124,37.99,84,53,1.01,broken clouds
669,Kudahuvadhoo,MV,2.6708,72.8944,81.82,69,100,14.67,overcast clouds
670,Surt,LY,31.2089,16.5887,60.66,62,99,25.03,overcast clouds
671,Dergachi,RU,51.2328,48.7659,10.06,96,76,4.0,broken clouds
672,Nara,JP,34.6851,135.8049,34.0,69,3,4.14,clear sky
673,Kamenka,RU,51.3223,42.7678,5.76,95,0,3.85,clear sky
674,Mykolayivka,UA,47.5414,30.7561,28.47,92,100,8.97,overcast clouds
675,Vytegra,RU,61.0064,36.4481,-14.87,88,51,11.34,broken clouds
676,Ossora,RU,59.2353,163.0719,-6.68,74,32,3.38,scattered clouds
677,Thunder Bay,CA,48.4001,-89.3168,30.99,74,40,5.75,scattered clouds
678,Dingli,MT,35.8614,14.3822,50.0,81,40,12.66,scattered clouds
679,Yar-Sale,RU,66.8333,70.8333,-0.22,91,97,13.53,overcast clouds
680,Takefu,JP,35.9039,136.1669,35.6,87,75,9.22,broken clouds
